[
  {
    "name": "Piroschka",
    "country": "AT",
    "categoryId": "etterem",
    "categoryLabel": "Étterem",
    "address": "Gersthofer Straße 140/1, 1180 Wien",
    "city": "Wien",
    "lat": 48.2376695,
    "lng": 16.3218812,
    "website": "http://www.piroschka.at",
    "phone": "+43 1 7344234",
    "osm": "node/330273415"
  },
  {
    "name": "Pizzeria Perryda",
    "country": "AT",
    "categoryId": "etterem",
    "categoryLabel": "Étterem",
    "address": "Maria-Rekker-Gasse 1, 1100 Wien",
    "city": "Wien",
    "lat": 48.1648965,
    "lng": 16.3832459,
    "website": "",
    "phone": "+43 1 9582735",
    "osm": "node/1314636916"
  },
  {
    "name": "Bistro Cocina",
    "country": "AT",
    "categoryId": "etterem",
    "categoryLabel": "Étterem",
    "address": "Bahnhofstraße 1, 3950 Gmünd",
    "city": "Gmünd",
    "lat": 48.7722943,
    "lng": 14.9853345,
    "website": "",
    "phone": "+43 660 1234745",
    "osm": "node/3138747622"
  },
  {
    "name": "Altes Landgut Werdenich",
    "country": "AT",
    "categoryId": "etterem",
    "categoryLabel": "Étterem",
    "address": "Untere Hauptstraße 2, 2423 Deutsch Jahrndorf",
    "city": "Deutsch Jahrndorf",
    "lat": 48.010981,
    "lng": 17.1061578,
    "website": "https://www.landgut-werdenich.at/",
    "phone": "+43 2144 21630",
    "osm": "node/3709159938"
  },
  {
    "name": "Burger Eck am Jako",
    "country": "AT",
    "categoryId": "etterem",
    "categoryLabel": "Étterem",
    "address": "Jakominiplatz Stand 12, Graz",
    "city": "Graz",
    "lat": 47.0676001,
    "lng": 15.442513,
    "website": "https://www.facebook.com/burgereck",
    "phone": "+436608380503",
    "osm": "node/4147239386"
  },
  {
    "name": "Bistro Budapest",
    "country": "AT",
    "categoryId": "kavez",
    "categoryLabel": "Kávézó / Cukrászda",
    "address": "Pilgramgasse 10, 1050 Wien",
    "city": "Wien",
    "lat": 48.1919609,
    "lng": 16.3570494,
    "website": "https://budapestbistro.at/",
    "phone": "+43 660 9225232",
    "osm": "node/4225441897"
  },
  {
    "name": "Schachlwirt",
    "country": "AT",
    "categoryId": "etterem",
    "categoryLabel": "Étterem",
    "address": "Moosstraße 133, 5020",
    "city": "",
    "lat": 47.7605548,
    "lng": 13.0168763,
    "website": "https://www.schachlwirt.at",
    "phone": "+43 662 830728",
    "osm": "node/4378528290"
  },
  {
    "name": "Dorf.Wirt",
    "country": "AT",
    "categoryId": "etterem",
    "categoryLabel": "Étterem",
    "address": "Dorf 3, 4751",
    "city": "",
    "lat": 48.2792026,
    "lng": 13.6280037,
    "website": "https://www.dorfer-wirt.at/",
    "phone": "+43 7764 20 277",
    "osm": "node/5329415023"
  },
  {
    "name": "Muskatnuss",
    "country": "AT",
    "categoryId": "etterem",
    "categoryLabel": "Étterem",
    "address": "Thörl 48, 8983 Bad Mitterndorf",
    "city": "Bad Mitterndorf",
    "lat": 47.5541352,
    "lng": 13.9468853,
    "website": "",
    "phone": "",
    "osm": "node/6638511885"
  },
  {
    "name": "Nachbarn",
    "country": "AT",
    "categoryId": "etterem",
    "categoryLabel": "Étterem",
    "address": "Prager Straße 4",
    "city": "",
    "lat": 48.2588311,
    "lng": 16.3966247,
    "website": "https://www.gasthaus-nachbarn.at/",
    "phone": "",
    "osm": "node/10753126633"
  },
  {
    "name": "Meister Langos & Lemon",
    "country": "AT",
    "categoryId": "etterem",
    "categoryLabel": "Étterem",
    "address": "Prater 23, 1020",
    "city": "",
    "lat": 48.2167201,
    "lng": 16.3990187,
    "website": "",
    "phone": "",
    "osm": "node/11208427637"
  },
  {
    "name": "Speedy",
    "country": "AT",
    "categoryId": "etterem",
    "categoryLabel": "Étterem",
    "address": "Lorystraße 44, 1110 Wien",
    "city": "Wien",
    "lat": 48.1723775,
    "lng": 16.4131592,
    "website": "https://pizzeriaspeedy.eatbu.com/",
    "phone": "+43 1 7435664",
    "osm": "node/11543833220"
  },
  {
    "name": "Budapest",
    "country": "CH",
    "categoryId": "etterem",
    "categoryLabel": "Étterem",
    "address": "Place de la Gare 3, 1470 Estavayer",
    "city": "Estavayer",
    "lat": 46.8442381,
    "lng": 6.8438422,
    "website": "",
    "phone": "+41 26 664 09 30",
    "osm": "node/10929111899"
  },
  {
    "name": "Paprika",
    "country": "CH",
    "categoryId": "etterem",
    "categoryLabel": "Étterem",
    "address": "Brahmsstrasse 22, 8003 Zürich",
    "city": "Zürich",
    "lat": 47.3786937,
    "lng": 8.5065553,
    "website": "https://www.aoz.ch/paprika",
    "phone": "+41 44 415 60 60",
    "osm": "node/387496840"
  },
  {
    "name": "Paprika In & Out",
    "country": "CH",
    "categoryId": "etterem",
    "categoryLabel": "Étterem",
    "address": "Rue de Flandres 2, 2000 Neuchâtel",
    "city": "Neuchâtel",
    "lat": 46.9905771,
    "lng": 6.92886,
    "website": "https://paprika-food.ch/",
    "phone": "+41 32 724 80 80",
    "osm": "node/1030004214"
  },
  {
    "name": "Paprika",
    "country": "CH",
    "categoryId": "etterem",
    "categoryLabel": "Étterem",
    "address": "Rue de l'Evole 39, 2000 Neuchâtel",
    "city": "Neuchâtel",
    "lat": 46.9895202,
    "lng": 6.921701,
    "website": "http://www.paprikafood.ch",
    "phone": "+41 32 724 06 80",
    "osm": "node/1760866991"
  },
  {
    "name": "Paprika Shop Feinkost aus Ungarn",
    "country": "CH",
    "categoryId": "husszek",
    "categoryLabel": "Magyar élelmiszer / deli",
    "address": "Rötelstrasse 1, 8006 Zürich",
    "city": "Zürich",
    "lat": 47.3894082,
    "lng": 8.5385205,
    "website": "https://www.joesbolt.ch/de/",
    "phone": "+41 79 847 64 55",
    "osm": "node/6324767385"
  }
]